{"type": "FeatureCollection","features": [{"type": "Feature", "geometry": {"type":"Point","coordinates":[11.5575246,48.1509733]}, "properties": {"osm_id": 6260372283, "osm_type": "nodes", "shop": "nutrition_supplements", "name": "Sportnahrung Guru", "healthcare": null}},{"type": "Feature", "geometry": {"type":"Point","coordinates":[11.5619112,48.1557917]}, "properties": {"osm_id": 6260372281, "osm_type": "nodes", "shop": "nutrition_supplements", "name": "FGR Reinigungsdienst", "healthcare": null}},{"type": "Feature", "geometry": {"type":"Point","coordinates":[11.6638106,48.1138977]}, "properties": {"osm_id": 8615124416, "osm_type": "nodes", "shop": null, "name": "Reiki Therapeutin", "healthcare": "alternative"}},{"type": "Feature", "geometry": {"type":"Point","coordinates":[11.5490501,48.1920254]}, "properties": {"osm_id": 11794070135, "osm_type": "nodes", "shop": null, "name": "Akupunktur & TCM Naturheilpraxis Shang", "healthcare": "alternative"}},{"type": "Feature", "geometry": {"type":"Point","coordinates":[11.5718759,48.1671201]}, "properties": {"osm_id": 10963972557, "osm_type": "nodes", "shop": null, "name": "Thomas Schmidt", "healthcare": "alternative"}},{"type": "Feature", "geometry": {"type":"Point","coordinates":[11.5713412,48.1666489]}, "properties": {"osm_id": 10707458516, "osm_type": "nodes", "shop": null, "name": "Praxis für Osteopathie", "healthcare": "alternative"}},{"type": "Feature", "geometry": {"type":"Point","coordinates":[11.5724628,48.1661571]}, "properties": {"osm_id": 11090136121, "osm_type": "nodes", "shop": null, "name": "Praxis für Ganzheitsmedizin", "healthcare": "alternative"}},{"type": "Feature", "geometry": {"type":"Point","coordinates":[11.5385464,48.1086186]}, "properties": {"osm_id": 4940793223, "osm_type": "nodes", "shop": null, "name": "TCM & Akupunktur Veronika Bartscherer", "healthcare": "alternative"}},{"type": "Feature", "geometry": {"type":"Point","coordinates":[11.4795162,48.1159339]}, "properties": {"osm_id": 11951618418, "osm_type": "nodes", "shop": null, "name": "Heilpraxis", "healthcare": "alternative"}},{"type": "Feature", "geometry": {"type":"Point","coordinates":[11.5691526,48.1636123]}, "properties": {"osm_id": 11920392832, "osm_type": "nodes", "shop": null, "name": "Praxis für Osteopathie", "healthcare": "alternative"}},{"type": "Feature", "geometry": {"type":"Point","coordinates":[11.5717993,48.1613492]}, "properties": {"osm_id": 11920392841, "osm_type": "nodes", "shop": null, "name": "Naturheilpraxis Ursula Vadas", "healthcare": "alternative"}},{"type": "Feature", "geometry": {"type":"Point","coordinates":[11.5260136,48.1560696]}, "properties": {"osm_id": 11463181357, "osm_type": "nodes", "shop": null, "name": "Naturheilpraxis Jürgen Degenhardt Heilpraktiker", "healthcare": "alternative"}},{"type": "Feature", "geometry": {"type":"Point","coordinates":[11.5255549,48.1561103]}, "properties": {"osm_id": 11020265381, "osm_type": "nodes", "shop": null, "name": null, "healthcare": "alternative"}},{"type": "Feature", "geometry": {"type":"Point","coordinates":[11.5144495,48.1804891]}, "properties": {"osm_id": 7098451083, "osm_type": "nodes", "shop": null, "name": "Werner-Physio", "healthcare": "alternative"}},{"type": "Feature", "geometry": {"type":"Point","coordinates":[11.5534692,48.1994141]}, "properties": {"osm_id": 7906112627, "osm_type": "nodes", "shop": null, "name": "Riki Allgeier", "healthcare": "alternative"}},{"type": "Feature", "geometry": {"type":"Point","coordinates":[11.5734358,48.1290149]}, "properties": {"osm_id": 10196651340, "osm_type": "nodes", "shop": null, "name": "Osteopathiepraxis Adah Gleich", "healthcare": "alternative"}},{"type": "Feature", "geometry": {"type":"Point","coordinates":[11.5307398,48.1463586]}, "properties": {"osm_id": 6331299691, "osm_type": "nodes", "shop": null, "name": "Naturheilpraxis Margit Rieder", "healthcare": "alternative"}},{"type": "Feature", "geometry": {"type":"Point","coordinates":[11.511062,48.1973483]}, "properties": {"osm_id": 6700259347, "osm_type": "nodes", "shop": null, "name": "Naturheilpraxis", "healthcare": "alternative"}},{"type": "Feature", "geometry": {"type":"Point","coordinates":[11.5698221,48.1307959]}, "properties": {"osm_id": 1138788518, "osm_type": "nodes", "shop": null, "name": "Dr. med. Andrea Boeltzig", "healthcare": "alternative"}},{"type": "Feature", "geometry": {"type":"Point","coordinates":[11.5621295,48.1590935]}, "properties": {"osm_id": 11134747546, "osm_type": "nodes", "shop": null, "name": "Naturheilpraxis Lindner", "healthcare": "alternative"}},{"type": "Feature", "geometry": {"type":"Point","coordinates":[11.4611929,48.1484932]}, "properties": {"osm_id": 5290261803, "osm_type": "nodes", "shop": null, "name": "Koepcke", "healthcare": "alternative"}},{"type": "Feature", "geometry": {"type":"Point","coordinates":[11.5472192,48.1920237]}, "properties": {"osm_id": 7903136069, "osm_type": "nodes", "shop": null, "name": "Heilpraxis Schimitzek", "healthcare": "alternative"}},{"type": "Feature", "geometry": {"type":"Point","coordinates":[11.548633,48.1915395]}, "properties": {"osm_id": 11615125129, "osm_type": "nodes", "shop": null, "name": "Vitalis Gesundheitscenter", "healthcare": "alternative"}},{"type": "Feature", "geometry": {"type":"Point","coordinates":[11.5273181,48.157972]}, "properties": {"osm_id": 11020288865, "osm_type": "nodes", "shop": null, "name": "Ilone Angelika Fischer", "healthcare": "alternative"}},{"type": "Feature", "geometry": {"type":"Point","coordinates":[11.5203783,48.1955714]}, "properties": {"osm_id": 1079181833, "osm_type": "nodes", "shop": null, "name": null, "healthcare": "alternative"}},{"type": "Feature", "geometry": {"type":"Point","coordinates":[11.4596589,48.1462626]}, "properties": {"osm_id": 5712865126, "osm_type": "nodes", "shop": null, "name": "Christian Schmidt Hypnose-Praxis", "healthcare": "alternative"}},{"type": "Feature", "geometry": {"type":"Point","coordinates":[11.5453132,48.1354233]}, "properties": {"osm_id": 6379230361, "osm_type": "nodes", "shop": null, "name": "Halbherr Ayurveda", "healthcare": "alternative"}},{"type": "Feature", "geometry": {"type":"Point","coordinates":[11.5859218,48.1676112]}, "properties": {"osm_id": 7415824908, "osm_type": "nodes", "shop": "nutrition_supplements", "name": "Body Attack", "healthcare": null}},{"type": "Feature", "geometry": {"type":"Point","coordinates":[11.5774466,48.1347981]}, "properties": {"osm_id": 2949117263, "osm_type": "nodes", "shop": "herbalist", "name": "Teeschale am Viktualienmarkt", "healthcare": null}},{"type": "Feature", "geometry": {"type":"Point","coordinates":[11.5788119,48.1370373]}, "properties": {"osm_id": 5485402619, "osm_type": "nodes", "shop": null, "name": "Praxis für Osteopathie - Daniel Ruhling", "healthcare": "alternative"}},{"type": "Feature", "geometry": {"type":"Point","coordinates":[11.591238,48.1609083]}, "properties": {"osm_id": 11207266392, "osm_type": "nodes", "shop": null, "name": "Spürbar Osteopathie", "healthcare": "alternative"}},{"type": "Feature", "geometry": {"type":"Point","coordinates":[11.5649613,48.1656437]}, "properties": {"osm_id": 11862742854, "osm_type": "nodes", "shop": null, "name": "Praxis für Naturheilkunde", "healthcare": "alternative"}},{"type": "Feature", "geometry": {"type":"Point","coordinates":[11.5859939,48.1668869]}, "properties": {"osm_id": 1343582381, "osm_type": "nodes", "shop": null, "name": "Energy & Lounge", "healthcare": "alternative"}},{"type": "Feature", "geometry": {"type":"Point","coordinates":[11.5201304,48.078028]}, "properties": {"osm_id": 4778733421, "osm_type": "nodes", "shop": null, "name": "Kluge Ernährung / Ernährungsberatung Susan Kluge", "healthcare": "alternative"}},{"type": "Feature", "geometry": {"type":"Point","coordinates":[11.5310461,48.138935]}, "properties": {"osm_id": 6027907710, "osm_type": "nodes", "shop": null, "name": "Ernst Simmet", "healthcare": "alternative"}},{"type": "Feature", "geometry": {"type":"Point","coordinates":[11.6443667,48.1651378]}, "properties": {"osm_id": 7415449591, "osm_type": "nodes", "shop": null, "name": "Ayurveda Praxis", "healthcare": "alternative"}},{"type": "Feature", "geometry": {"type":"Point","coordinates":[11.5407415,48.1210812]}, "properties": {"osm_id": 11063970446, "osm_type": "nodes", "shop": null, "name": "Michaela Rieger", "healthcare": "alternative"}},{"type": "Feature", "geometry": {"type":"Point","coordinates":[11.5407404,48.1210737]}, "properties": {"osm_id": 11895629519, "osm_type": "nodes", "shop": null, "name": "Brigitte Georgii", "healthcare": "alternative"}},{"type": "Feature", "geometry": {"type":"Point","coordinates":[11.5401866,48.1179955]}, "properties": {"osm_id": 9323806702, "osm_type": "nodes", "shop": "nutrition_supplements", "name": "Mito Care", "healthcare": null}},{"type": "Feature", "geometry": {"type":"Point","coordinates":[11.5471819,48.1121898]}, "properties": {"osm_id": 4942592721, "osm_type": "nodes", "shop": null, "name": "Naturheilpraxis Fabian Müller", "healthcare": "alternative"}},{"type": "Feature", "geometry": {"type":"Point","coordinates":[11.5481444,48.1116378]}, "properties": {"osm_id": 4940836821, "osm_type": "nodes", "shop": null, "name": "Heilpraktikerin Andrea Waienegger", "healthcare": "alternative"}},{"type": "Feature", "geometry": {"type":"Point","coordinates":[11.5879873,48.1368256]}, "properties": {"osm_id": 297933546, "osm_type": "nodes", "shop": null, "name": "Naturheilpraxis", "healthcare": "alternative"}},{"type": "Feature", "geometry": {"type":"Point","coordinates":[11.5765951,48.1670608]}, "properties": {"osm_id": 11133474747, "osm_type": "nodes", "shop": null, "name": "Naturheilpraxis", "healthcare": "alternative"}},{"type": "Feature", "geometry": {"type":"Point","coordinates":[11.5655707,48.1528886]}, "properties": {"osm_id": 3929291623, "osm_type": "nodes", "shop": null, "name": "Naturheilpraxis Karin Sommer", "healthcare": "alternative"}},{"type": "Feature", "geometry": {"type":"Point","coordinates":[11.5749046,48.1627915]}, "properties": {"osm_id": 11733903629, "osm_type": "nodes", "shop": null, "name": "Nadezda Stopa", "healthcare": "alternative"}},{"type": "Feature", "geometry": {"type":"Point","coordinates":[11.5745213,48.1628503]}, "properties": {"osm_id": 10712606412, "osm_type": "nodes", "shop": null, "name": "jost hp", "healthcare": "alternative"}},{"type": "Feature", "geometry": {"type":"Point","coordinates":[11.5716824,48.1622343]}, "properties": {"osm_id": 10914334140, "osm_type": "nodes", "shop": null, "name": "Osteopathie Wegerhoff", "healthcare": "alternative"}},{"type": "Feature", "geometry": {"type":"Point","coordinates":[11.5836077,48.1413569]}, "properties": {"osm_id": 9155429131, "osm_type": "nodes", "shop": null, "name": "Praxis für Osteopathie Benjamin Ebert", "healthcare": "alternative"}},{"type": "Feature", "geometry": {"type":"Point","coordinates":[11.5678904,48.1320427]}, "properties": {"osm_id": 4064680738, "osm_type": "nodes", "shop": "herbalist", "name": "Kräutergarten", "healthcare": null}},{"type": "Feature", "geometry": {"type":"Point","coordinates":[11.5672952,48.1316833]}, "properties": {"osm_id": 1108008811, "osm_type": "nodes", "shop": null, "name": "Naturheilpraxis", "healthcare": "alternative"}},{"type": "Feature", "geometry": {"type":"Point","coordinates":[11.5729939,48.1329439]}, "properties": {"osm_id": 3752884756, "osm_type": "nodes", "shop": "herbalist", "name": "Kräuterparadies Lindig", "healthcare": null}},{"type": "Feature", "geometry": {"type":"Point","coordinates":[11.5634255,48.1529671]}, "properties": {"osm_id": 6222842612, "osm_type": "nodes", "shop": null, "name": "Karin Elke Scherl", "healthcare": "alternative"}},{"type": "Feature", "geometry": {"type":"Point","coordinates":[11.5678875,48.1344132]}, "properties": {"osm_id": 10121812184, "osm_type": "nodes", "shop": null, "name": "Hilda Wittmann", "healthcare": "alternative"}},{"type": "Feature", "geometry": {"type":"Point","coordinates":[11.5420821,48.116719]}, "properties": {"osm_id": 11063241538, "osm_type": "nodes", "shop": null, "name": "Zentrum für Coaching, Kinesiologie, Geistiges Heilen", "healthcare": "alternative"}},{"type": "Feature", "geometry": {"type":"Point","coordinates":[11.546811,48.1234947]}, "properties": {"osm_id": 9950751840, "osm_type": "nodes", "shop": null, "name": "Somos", "healthcare": "alternative"}},{"type": "Feature", "geometry": {"type":"Point","coordinates":[11.4911125,48.1200831]}, "properties": {"osm_id": 10315112082, "osm_type": "nodes", "shop": null, "name": "Heilpraktikerinnen", "healthcare": "alternative"}},{"type": "Feature", "geometry": {"type":"Point","coordinates":[11.5652154,48.1643159]}, "properties": {"osm_id": 11134747550, "osm_type": "nodes", "shop": null, "name": "Chiropraktik Gabelberger", "healthcare": "alternative"}},{"type": "Feature", "geometry": {"type":"Point","coordinates":[11.6160167,48.1426699]}, "properties": {"osm_id": 5171956930, "osm_type": "nodes", "shop": null, "name": "Praxis für Naturheilwesen", "healthcare": "alternative"}},{"type": "Feature", "geometry": {"type":"Point","coordinates":[11.6439225,48.1009034]}, "properties": {"osm_id": 8790377775, "osm_type": "nodes", "shop": "nutrition_supplements", "name": "BioTechUSA", "healthcare": null}},{"type": "Feature", "geometry": {"type":"Point","coordinates":[11.6406188,48.1245723]}, "properties": {"osm_id": 4535095799, "osm_type": "nodes", "shop": null, "name": "Ludwig Ziller", "healthcare": "alternative"}},{"type": "Feature", "geometry": {"type":"Point","coordinates":[11.4774031,48.0867086]}, "properties": {"osm_id": 9402012217, "osm_type": "nodes", "shop": null, "name": "Naturheilpraxis für Traditionelle Chinesische Medizin", "healthcare": "alternative"}},{"type": "Feature", "geometry": {"type":"Point","coordinates":[11.4768132,48.115186]}, "properties": {"osm_id": 11879142790, "osm_type": "nodes", "shop": null, "name": "Naturheilpraxis", "healthcare": "alternative"}},{"type": "Feature", "geometry": {"type":"Point","coordinates":[11.595185,48.1297638]}, "properties": {"osm_id": 5705460198, "osm_type": "nodes", "shop": null, "name": "Heilpraxis Thomas Krull", "healthcare": "alternative"}},{"type": "Feature", "geometry": {"type":"Point","coordinates":[11.5079879,48.1308635]}, "properties": {"osm_id": 11104732955, "osm_type": "nodes", "shop": null, "name": "Naturheilpraxis Sieglinde Rundbuchner", "healthcare": "alternative"}},{"type": "Feature", "geometry": {"type":"Point","coordinates":[11.5088401,48.0801917]}, "properties": {"osm_id": 5983127338, "osm_type": "nodes", "shop": null, "name": "Dirk Sommer", "healthcare": "alternative"}},{"type": "Feature", "geometry": {"type":"Point","coordinates":[11.6467846,48.1260315]}, "properties": {"osm_id": 6568431267, "osm_type": "nodes", "shop": null, "name": "Serenity", "healthcare": "alternative"}},{"type": "Feature", "geometry": {"type":"Point","coordinates":[11.4799067,48.1175848]}, "properties": {"osm_id": 11637975279, "osm_type": "nodes", "shop": null, "name": "Naturheilpraxis Michael Neuperth", "healthcare": "alternative"}},{"type": "Feature", "geometry": {"type":"Point","coordinates":[11.4785762,48.1148704]}, "properties": {"osm_id": 11881372753, "osm_type": "nodes", "shop": null, "name": "Naturheilpraxis Großhadern", "healthcare": "alternative"}},{"type": "Feature", "geometry": {"type":"Point","coordinates":[11.4791052,48.0876836]}, "properties": {"osm_id": 10303029709, "osm_type": "nodes", "shop": null, "name": "Naturheilpraxis Christine Müller", "healthcare": "alternative"}},{"type": "Feature", "geometry": {"type":"Point","coordinates":[11.5037394,48.0902759]}, "properties": {"osm_id": 11108268320, "osm_type": "nodes", "shop": null, "name": "Dijana von Conta", "healthcare": "alternative"}},{"type": "Feature", "geometry": {"type":"Point","coordinates":[11.5453116,48.1353707]}, "properties": {"osm_id": 6379230356, "osm_type": "nodes", "shop": null, "name": "Praxis für Ayurvedamedizin & Yogatherapie", "healthcare": "alternative"}},{"type": "Feature", "geometry": {"type":"Point","coordinates":[11.54531,48.135318]}, "properties": {"osm_id": 6379230355, "osm_type": "nodes", "shop": null, "name": "Praxis für Feldenkrais und erholsamen Schlaf", "healthcare": "alternative"}},{"type": "Feature", "geometry": {"type":"Point","coordinates":[11.5453124,48.135397]}, "properties": {"osm_id": 6379230357, "osm_type": "nodes", "shop": null, "name": "Naturheilpraxis Susanne Keller", "healthcare": "alternative"}},{"type": "Feature", "geometry": {"type":"Point","coordinates":[11.5453108,48.1353444]}, "properties": {"osm_id": 6379230358, "osm_type": "nodes", "shop": null, "name": "Osteopathie Kirsten Rengers", "healthcare": "alternative"}},{"type": "Feature", "geometry": {"type":"Point","coordinates":[11.5254191,48.1116162]}, "properties": {"osm_id": 11599428440, "osm_type": "nodes", "shop": null, "name": "Praxiszentrum Sendling", "healthcare": "alternative"}},{"type": "Feature", "geometry": {"type":"Point","coordinates":[11.4950683,48.0851983]}, "properties": {"osm_id": 2140651526, "osm_type": "nodes", "shop": null, "name": "Med Natural - Praxis für ganzheitliche Medizin", "healthcare": "alternative"}},{"type": "Feature", "geometry": {"type":"Point","coordinates":[11.5465478,48.1206079]}, "properties": {"osm_id": 6378851999, "osm_type": "nodes", "shop": null, "name": "Heike Schikora", "healthcare": "alternative"}},{"type": "Feature", "geometry": {"type":"Point","coordinates":[11.63721,48.1546831]}, "properties": {"osm_id": 2265980085, "osm_type": "nodes", "shop": null, "name": "LichtOase Gesundheitszentrum", "healthcare": "alternative"}},{"type": "Feature", "geometry": {"type":"Point","coordinates":[11.562526,48.1637357]}, "properties": {"osm_id": 11112300862, "osm_type": "nodes", "shop": null, "name": "Praxis für Osteopathie und Naturheilkunde", "healthcare": "alternative"}},{"type": "Feature", "geometry": {"type":"Point","coordinates":[11.6655017,48.1290714]}, "properties": {"osm_id": 5085839027, "osm_type": "nodes", "shop": null, "name": null, "healthcare": "alternative"}},{"type": "Feature", "geometry": {"type":"Point","coordinates":[11.6021146,48.1449885]}, "properties": {"osm_id": 10969248312, "osm_type": "nodes", "shop": null, "name": "Dr. med. Michael W. Reith", "healthcare": "alternative"}},{"type": "Feature", "geometry": {"type":"Point","coordinates":[11.5359838,48.1365693]}, "properties": {"osm_id": 5474169241, "osm_type": "nodes", "shop": null, "name": "American Chiropractic", "healthcare": "alternative"}},{"type": "Feature", "geometry": {"type":"Point","coordinates":[11.5436446,48.1347358]}, "properties": {"osm_id": 4466650591, "osm_type": "nodes", "shop": null, "name": "Naturheilpraxis Mau", "healthcare": "alternative"}},{"type": "Feature", "geometry": {"type":"Point","coordinates":[11.5313398,48.1312142]}, "properties": {"osm_id": 5860609863, "osm_type": "nodes", "shop": null, "name": "Dr. med. Jonas Putzhammer", "healthcare": "alternative"}},{"type": "Feature", "geometry": {"type":"Point","coordinates":[11.5385415,48.1086591]}, "properties": {"osm_id": 4940781927, "osm_type": "nodes", "shop": null, "name": "Heilpraktikerin Angelika Kohlhaus", "healthcare": "alternative"}},{"type": "Feature", "geometry": {"type":"Point","coordinates":[11.5386935,48.1132373]}, "properties": {"osm_id": 6586137386, "osm_type": "nodes", "shop": null, "name": "Praxis Christina Pielken", "healthcare": "alternative"}},{"type": "Feature", "geometry": {"type":"Polygon","coordinates":[[[11.588436,48.1365681],[11.5885107,48.1365528],[11.5884921,48.1365125],[11.5885155,48.1365054],[11.5886835,48.1364715],[11.5887362,48.1365879],[11.5887637,48.1366475],[11.5885718,48.1366869],[11.5885528,48.1366457],[11.5884788,48.1366609],[11.588436,48.1365681]]]}, "properties": {"osm_id": 96815242, "osm_type": "ways_poly", "shop": null, "name": "TRIUNE Fachpraxis für Osteopathie & Naturheilkunde", "healthcare": "alternative"}},{"type": "Feature", "geometry": {"type":"Polygon","coordinates":[[[11.4630409,48.1483998],[11.4631744,48.1483593],[11.4632799,48.1483273],[11.46331,48.1483735],[11.4632071,48.1484046],[11.4631535,48.1484417],[11.4630944,48.1484833],[11.4630409,48.1483998]]]}, "properties": {"osm_id": 327220179, "osm_type": "ways_poly", "shop": "nutrition_supplements", "name": "Body Attack", "healthcare": null}}]}